sid,station_name,lat,lon,elev,begints,rw_name,rw_heading,faa_id,real_name
PADK,ADAK NAS/MITCHELL,51.87796,-176.64603,4,1942-10-30 00:00:00-05,Runway 5/23,61,ADK,Adak Airport
PAKH,AKHIOK,56.94,-154.18,13,2010-02-27 03:21:00-06,Runway 4/22,62,AKK,Akhiok Airport
PAUT,Akun,54.1446,-165.6041,20.6849,2014-05-16 08:55:00-05,Runway 9/27,99,7AK,Akutan Airport
PALP,Alpine,70.3443,-150.9447,7.998743,2005-03-01 06:48:00-06,Runway 3/21,,AK1,Alpine Airstrip
PAFM,AMBLER,67.10631,-157.85747,88,1988-01-05 08:00:00-06,Runway 1/19,23,AFM,Ambler Airport
PAFM,AMBLER,67.10631,-157.85747,88,1988-01-05 08:00:00-06,Runway 10/28,113,AFM,Ambler Airport
PAKP,ANAKTUVUK PASS,68.1336,-151.74334,643,1980-09-11 09:00:00-05,Runway 2/20,38,AKP,Anaktuvuk Pass Airport
PANC,ANCHORAGE INTL ARPT (ASOS),61.16972,-150.02611,40,1953-11-01 04:00:00-06,Runway 7R/25L,90,ANC,Ted Stevens Anchorage International Airport
PANC,ANCHORAGE INTL ARPT (ASOS),61.16972,-150.02611,40,1953-11-01 04:00:00-06,Runway 15/33,165,ANC,Ted Stevens Anchorage International Airport
PANC,ANCHORAGE INTL ARPT (ASOS),61.16972,-150.02611,40,1953-11-01 04:00:00-06,Runway 7L/25R,90,ANC,Ted Stevens Anchorage International Airport
PAGN,ANGOON,57.5036,-134.5851,6.9889026,1972-12-31 19:00:00-06,Runway NW/SE,,AGN,Angoon Seaplane Base
PANI,ANIAK (AWOS),61.5816,-159.54304,26,1948-07-01 05:00:00-05,Runway 11/29,121.0,ANI,Aniak Airport
PANI,ANIAK (AWOS),61.5816,-159.54304,26,1948-07-01 05:00:00-05,Runway 5W/23W,,ANI,Aniak Airport
PANT,ANNETTE ISLAND (ASOS),55.04244,-131.57223,34,1941-07-14 12:00:00-05,Runway 12/30,,ANN,Annette Island Airport
PANT,ANNETTE ISLAND (ASOS),55.04244,-131.57223,34,1941-07-14 12:00:00-05,Runway 2/20,,ANN,Annette Island Airport
PANV,ANVIK AIRPORT,62.64733,-160.19007,99,1994-12-31 18:00:00-06,Runway 17/35,187,ANV,Anvik Airport
PARC,ARCTIC VILLAGE,68.11467,-145.57942,636,1994-12-31 18:00:00-06,Runway 2/20,45,ARC,Arctic Village Airport
PAAK,ATKA AIRPORT,52.22059,-174.20618,17,1948-01-01 12:00:00-06,Runway 16/34,165,AKA,Atka Airport
PATQ,ATQASUK,70.46728,-157.43574,29,2010-02-23 00:56:00-06,Runway 7/25,81,ATK,Atqasuk Edward Burnell Sr. Memorial Airport
PABR,BARROW/POST-ROGERS (ASOS),71.28257,-156.79224,4,1945-01-01 07:00:00-05,Runway 7/25,90,BRW,Wiley Post-Will Rogers Memorial Airport
PABA,BARTER ISLAND(AWOS),70.13399,-143.58187,2,1947-10-01 11:00:00-06,Runway 7/25,90,BTI,Barter Island Airport
PABE,BETHEL AIRPORT (ASOS),60.78583,-161.82639,46,1945-01-01 06:00:00-05,Runway 1L/19R,23,BET,Bethel Airport
PABE,BETHEL AIRPORT (ASOS),60.78583,-161.82639,46,1945-01-01 06:00:00-05,Runway 1R/19L,23,BET,Bethel Airport
PABE,BETHEL AIRPORT (ASOS),60.78583,-161.82639,46,1945-01-01 06:00:00-05,Runway 12/30,128,BET,Bethel Airport
PABT,Bettles Field,66.9165,-151.5189,199,1945-01-01 07:00:00-05,Runway 2/20,32,BTT,Bettles Airport
PALV,BIG RIVER LAKE,60.816,-152.302,12,1978-08-22 23:00:00-05,,,,
PABV,BIRCHWOOD,61.41639,-149.50722,29,1994-01-02 20:00:00-06,Runway 2L/20R,39.0,BCV,Birchwood Airport
PABV,BIRCHWOOD,61.41639,-149.50722,29,1994-01-02 20:00:00-06,Runway 2R/20L,,BCV,Birchwood Airport
PFKT,Brevig Mission,65.33133,-166.46572,1,2013-03-14 08:58:00-05,Runway 12/30,130,KTS,Brevig Mission Airport
PFKT,Brevig Mission,65.33133,-166.46572,1,2013-03-14 08:58:00-05,Runway 5/23,55,KTS,Brevig Mission Airport
PABL,BUCKLAND,65.98157,-161.14907,13.125138,1998-12-01 03:15:00-06,Runway 11/29,122,BVK,Buckland Airport
PATW,CANTWELL,63.3912,-148.95562,668,1983-11-03 17:00:00-06,Runway 4/22,,TTW,Cantwell Airport
PALU,CAPE LISBURNE(AWOS),68.88333,-166.13333,3,1952-08-28 20:00:00-05,Runway 9/27,101,LUR,Cape Lisburne LRRS Airport
PAEH,CAPE NEWENHAM(AWOS),58.64643,-162.06278,165,1953-07-26 13:00:00-05,Runway 15/33,,EHM,Cape Newenham LRRS Airport
PACZ,CAPE ROMANZOFF AWOS,61.7803,-166.03875,146,1953-03-31 18:00:00-06,Runway 2/20,29,CZF,Cape Romanzof LRRS Airport
PACE,Central,65.57394,-144.78089,286,1948-07-01 07:00:00-05,Runway 8/26,103,CEM,Central Airport
PARL,CENTRAL AIRPORT,65.571,-144.7765,284,1948-07-01 07:00:00-05,,,,
PALR,CHANDALAR LAKE,67.50452,-148.48322,585,1973-06-24 01:00:00-05,Runway 3/21,57,WCR,Chandalar Lake Airport
PAVA,Chevak,61.5408,-165.6009,23,2009-03-01 03:57:00-06,Runway 2/20,33,VAK,Chevak Airport
PAJC,CHIGNIK,56.31146,-158.37324,20,1996-07-01 03:34:00-05,Runway 2/20,34,AJC,Chignik Airport
PAEC,CHULITNA,62.88333,-149.83333,381,1978-11-29 18:00:00-06,,,,
PFCL,Clarks Point,58.8337,-158.5294,14.840466,2014-02-06 09:56:00-06,Runway 18/36,,CLP,Clarks Point Airport
PACD,Cold Bay,55.22067,-162.73229,24.05756,1942-03-04 11:00:00-05,Runway 15/33,158,CDB,Cold Bay Airport
PACD,Cold Bay,55.22067,-162.73229,24.05756,1942-03-04 11:00:00-05,Runway 8/26,95,CDB,Cold Bay Airport
PACV,CORDOVA/MILE 13,60.48889,-145.45111,13,1942-06-11 17:00:00-05,Runway 9/27,114,CDV,Merle K (Mudhole) Smith Airport
PACV,CORDOVA/MILE 13,60.48889,-145.45111,13,1942-06-11 17:00:00-05,Runway 16/34,181,CDV,Merle K (Mudhole) Smith Airport
PASC,DEADHORSE (ASOS),70.19475,-148.46517,17,1972-12-31 19:00:00-06,Runway 6/24,75,SCC,Deadhorse Airport
PADE,DEERING AIRPORT (ASOS),66.06956,-162.76637,4,1984-05-01 14:00:00-05,Runway 3/21,38,DEE,Deering Airport
PADE,DEERING AIRPORT (ASOS),66.06956,-162.76637,4,1984-05-01 14:00:00-05,Runway 12/30,126,DEE,Deering Airport
PADL,DILLINGHAM (AMOS),59.04467,-158.5055,29,1972-12-31 18:00:00-06,Runway 1/19,26,DLG,Dillingham Airport
PADU,DUTCH HARBOR,53.90014,-166.5435,4,1946-01-01 05:00:00-06,Runway 13/31,136,DUT,Unalaska Airport
PAEG,EAGLE AIRPORT (ASOS),64.77808,-141.14961,77,1981-10-01 12:00:00-05,Runway 7/25,92,EAA,Eagle Airport
PAII,EGEGIK(AWOS),58.18528,-157.38556,119,1992-12-31 18:00:00-06,Runway 12/30,140,EII,Egegik Airport
PAII,EGEGIK(AWOS),58.18528,-157.38556,119,1992-12-31 18:00:00-06,Runway 3/21,50,EII,Egegik Airport
PAEI,EIELSON AFB,64.66567,-147.1015,167,1944-11-11 05:00:00-05,Runway 14/32,159,EIL,Eielson Air Force Base
PAEL,ELFIN COVE SEAPLANE,58.19518,-136.34739,9.02062,1974-12-18 18:00:00-06,Runway NW/SE,,ELV,Elfin Cove Seaplane Base
PFEL,Elim,64.61497,-162.27053,1,2012-09-19 22:58:00-05,Runway 1/19,29,ELI,Elim Airport
PAED,ELMENDORF AFB,61.25135,-149.80651,65,1941-03-10 04:00:00-06,Runway 6/24,80,EDF,Elmendorf Air Force Base
PAED,ELMENDORF AFB,61.25135,-149.80651,65,1941-03-10 04:00:00-06,Runway 16/34,180,EDF,Elmendorf Air Force Base
PAEM,EMMONAK,62.78614,-164.49075,3,1944-04-12 06:00:00-05,Runway 16/34,177,ENM,Emmonak Airport
PAZK,EUREKA,61.937,-147.169,1002,1994-12-31 18:00:00-06,Runway 1/19,,Z13,Akiachak Airport
PAFA,FAIRBANKS INTL ARPT (ASOS),64.80389,-147.87611,138,1946-01-01 04:00:00-06,Runway 2L/20R,38,FAI,Fairbanks International Airport
PAFA,FAIRBANKS INTL ARPT (ASOS),64.80389,-147.87611,138,1946-01-01 04:00:00-06,Runway 2R/20L,38,FAI,Fairbanks International Airport
PAFA,FAIRBANKS INTL ARPT (ASOS),64.80389,-147.87611,138,1946-01-01 04:00:00-06,Runway 2/20,38,FAI,Fairbanks International Airport
PAFA,FAIRBANKS INTL ARPT (ASOS),64.80389,-147.87611,138,1946-01-01 04:00:00-06,Runway 2W/20W,38,FAI,Fairbanks International Airport
PAKF,False Pass Airport,54.8474,-163.4103,6,1972-12-31 18:00:00-06,Runway 14/32,,KFP,False Pass Airport
PAFL,Farewell,62.5316,-153.6111,395,2015-04-04 21:47:00-05,Runway 13/31,,TNW,Tin Creek Airport
PAFK,FAREWELL LAKE SEAPLANE,62.5425,-153.6225,321,1948-07-01 05:00:00-05,Runway NW/SE,,FKK,Farewell Lake Seaplane Base
PFYU,FORT YUKON (AWOS),66.56667,-145.26667,131,1948-07-01 07:00:00-05,Runway 4/22,60,FYU,Fort Yukon Airport
PABI,FT.GREELY/ALLEN AAF (ASOS),63.995,-145.71833,398,1945-10-15 04:00:00-06,Runway 1/19,30,BIG,Allen Army Airfield
PABI,FT.GREELY/ALLEN AAF (ASOS),63.995,-145.71833,398,1945-10-15 04:00:00-06,Runway 10/28,125,BIG,Allen Army Airfield
PABI,FT.GREELY/ALLEN AAF (ASOS),63.995,-145.71833,398,1945-10-15 04:00:00-06,Runway 7/25,92,BIG,Allen Army Airfield
PAFR,Ft. Richardson,61.2664,-149.6531,121,1973-12-01 10:00:00-06,Runway 17/35,191,FRN,Bryant Army Airfield Heliport
PAGB,GALBRAITH LAKE,68.47967,-149.48992,814,1975-01-08 17:00:00-06,Runway 14/32,152,GBH,Galbraith Lake Airport
PAGA,GALENA AIRPORT,64.73618,-156.93742,46,1942-09-17 17:00:00-05,Runway 8/26,89,GAL,Edward G. Pitka Sr. Airport
PAGA,GALENA AIRPORT,64.73618,-156.93742,46,1942-09-17 17:00:00-05,Runway 6/24,90,GAL,Edward G. Pitka Sr. Airport
PAGM,GAMBELL (AWOS),63.76677,-171.73282,8,1948-07-01 06:00:00-05,Runway 16/34,172,GAM,Gambell Airport
PAGL,GOLOVIN,64.54333,-163.03944,8,1998-07-01 08:46:00-05,Runway 3/21,36,GLV,Golovin Airport
PAGK,GULKANA ARPT (ASOS),62.1602,-145.457,481,1945-01-01 05:00:00-05,Runway 15L/33R,171,GKN,Gulkana Airport
PAGK,GULKANA ARPT (ASOS),62.1602,-145.457,481,1945-01-01 05:00:00-05,Runway 15R/33L,171,GKN,Gulkana Airport
PAGS,GUSTAVUS,58.42528,-135.70742,9,1948-12-31 18:00:00-06,Runway 11/29,135,GST,Gustavus Airport
PAGS,GUSTAVUS,58.42528,-135.70742,9,1948-12-31 18:00:00-06,Runway 2/20,41,GST,Gustavus Airport
PAHN,Haines,59.24286,-135.51166,7,1948-07-01 04:00:00-05,Runway 8/26,110,HNS,Haines Airport
PAHZ,HAYES RIVER,61.983,-152.086,305,1972-12-31 18:00:00-06,,,,
PAHV,HEALY RIVER AIRPORT,63.86611,-148.96889,396,1976-12-21 12:00:00-06,Runway 15/33,,HRR,Healy River Airport
PAHC,HOLY CROSS,62.18833,-159.77492,21,2010-02-23 00:56:00-06,Runway 1/19,31,HCA,Holy Cross Airport
PAHO,HOMER MUNICIPAL (ASOS),59.64556,-151.47658,22,1948-07-01 11:00:00-05,Runway 4/22,55.0,HOM,Homer Airport
PAHO,HOMER MUNICIPAL (ASOS),59.64556,-151.47658,22,1948-07-01 11:00:00-05,Runway 6W/24W,,HOM,Homer Airport
PAOH,HOONAH SEAPLANE,58.11222,-135.45194,0,1978-11-24 16:00:00-06,Runway 6/24,78,HNH,Hoonah Airport
PAHP,HOOPER BAY (AWOS),61.52386,-166.14664,5,1984-11-05 13:00:00-06,Runway 13/31,149,HPB,Hooper Bay Airport
PAHL,Huslia,65.69786,-156.35139,67,1999-01-31 22:20:00-06,Runway 3/21,51,HLA,Huslia Airport
PAHS,HUSLIA,65.7,-156.38333,55,1994-01-02 20:00:00-06,,,,
PAHY,Hydaburg Seaplane Base,55.20611,-132.82806,0.14087102,1978-12-05 12:00:00-06,Runway E/W,,HYG,Hydaburg Seaplane Base
PAIG,IGIUGIG,59.32404,-155.90179,29,2010-02-23 00:56:00-06,Runway 5/23,72,IGG,Igiugig Airport
PAIL,ILIAMNA ARPT (ASOS),59.74917,-154.90917,49,1948-07-01 04:00:00-05,Runway 8/26,93,ILI,Iliamna Airport
PAIL,ILIAMNA ARPT (ASOS),59.74917,-154.90917,49,1948-07-01 04:00:00-05,Runway 18/36,189,ILI,Iliamna Airport
PAIL,ILIAMNA ARPT (ASOS),59.74917,-154.90917,49,1948-07-01 04:00:00-05,Runway E/W,277,ILI,Iliamna Airport
PAIL,ILIAMNA ARPT (ASOS),59.74917,-154.90917,49,1948-07-01 04:00:00-05,Runway N/S,198,ILI,Iliamna Airport
PAIM,INDIAN MTN AFS AWOS,65.99276,-153.70377,389,1951-08-01 07:00:00-05,Runway 6/24,,UTO,Indian Mountain LRRS Airport
PAJN,JUNEAU INTL AIRPORT (ASOS),58.35497,-134.57628,7,1948-07-01 09:00:00-05,Runway 8/26,105.0,JNU,Juneau International Airport
PAJN,JUNEAU INTL AIRPORT (ASOS),58.35497,-134.57628,7,1948-07-01 09:00:00-05,Runway 8W/26W,,JNU,Juneau International Airport
PAFE,KAKE SEAPLANE BASE,56.96136,-133.91026,42.077408,1972-12-31 18:00:00-06,Runway 11/29,130,AFE,Kake Airport
PALG,KALSKAG,61.53627,-160.34133,17,2010-02-23 00:56:00-06,Runway 6/24,81,KLG,Kalskag Airport
PAKV,KALTAG AIRPORT (ASOS),64.31898,-158.74131,60,1998-08-01 03:53:00-05,Runway 3/21,47,KAL,Kaltag Airport
PAEN,KENAI MUNICIPAL (ASOS),60.5797,-151.2391,29,1948-07-01 05:00:00-05,Runway 2L/20R,31.0,ENA,Kenai Municipal Airport
PAEN,KENAI MUNICIPAL (ASOS),60.5797,-151.2391,29,1948-07-01 05:00:00-05,Runway 2R/20L,31.0,ENA,Kenai Municipal Airport
PAEN,KENAI MUNICIPAL (ASOS),60.5797,-151.2391,29,1948-07-01 05:00:00-05,Runway 2W/20W,,ENA,Kenai Municipal Airport
PAKT,KETCHIKAN INTL ARPT (ASOS),55.35667,-131.71167,29,1948-07-01 12:00:00-05,Runway 11/29,136.0,KTN,Ketchikan International Airport
PAKT,KETCHIKAN INTL ARPT (ASOS),55.35667,-131.71167,29,1948-07-01 12:00:00-05,Runway WNW/ESE,,KTN,Ketchikan International Airport
PAIK,Kiana,66.97595,-160.43653,51,1983-12-22 17:00:00-06,Runway 7/25,85,IAN,Bob Baker Memorial Airport
PAVC,KING COVE,55.11635,-162.26623,47,2010-02-24 06:17:00-06,Runway 8/26,88,KVC,King Cove Airport
PAKN,KING SALMON (ASOS),58.68361,-156.65389,15,1942-01-10 13:00:00-06,Runway 12/30,132.0,AKN,King Salmon Airport
PAKN,KING SALMON (ASOS),58.68361,-156.65389,15,1942-01-10 13:00:00-06,Runway 18/36,196.0,AKN,King Salmon Airport
PAKN,KING SALMON (ASOS),58.68361,-156.65389,15,1942-01-10 13:00:00-06,Runway NW/SE,,AKN,King Salmon Airport
PAKI,KIPNUK,59.93,-164.03,3,1983-12-01 11:00:00-06,Runway 17/35,183,IIK,Kipnuk Airport
PAVL,KIVALINA AIRPORT (ASOS),67.73167,-164.54833,3,1998-08-01 03:53:00-05,Runway 12/30,137,KVL,Kivalina Airport
PAKW,KLAWOCK (ASOS),55.57923,-133.076,15,1980-10-15 09:00:00-05,Runway 2/20,39,AKW,Klawock Airport
PADQ,KODIAK (ASOS),57.74997,-152.49386,34,1945-01-01 05:00:00-05,Runway 8/26,92,ADQ,Kodiak Airport
PADQ,KODIAK (ASOS),57.74997,-152.49386,34,1945-01-01 05:00:00-05,Runway 11/29,127,ADQ,Kodiak Airport
PADQ,KODIAK (ASOS),57.74997,-152.49386,34,1945-01-01 05:00:00-05,Runway 1/19,22,ADQ,Kodiak Airport
PAJZ,KOLIGANEK,59.72664,-157.25947,82,2010-02-23 00:56:00-06,Runway 9/27,106,JZZ,Koliganek Airport
PAOT,Kotzebue / Wien,66.88572,-162.60679,1,1945-01-01 06:00:00-05,Runway 9/27,102,OTZ,Ralph Wien Memorial Airport
PAOT,Kotzebue / Wien,66.88572,-162.60679,1,1945-01-01 06:00:00-05,Runway 18/36,194,OTZ,Ralph Wien Memorial Airport
PAKK,KOYUK,64.93949,-161.15427,40,1976-05-03 12:00:00-05,Runway 1/19,24,KKA,Koyuk Alfred Adams Airport
PAKU,KUPARUK AIRPORT,70.33083,-149.5975,20,1974-11-01 10:00:00-06,Runway 6/24,78,UBW,Ugnu-Kuparuk Airport
PFKW,Kwethluk,60.7903,-161.4437,6,2014-05-15 10:56:00-05,Runway 18/36,196,KWT,Kwethluk Airport
PALH,Lake Hood Seaplane,61.17861,-149.96511,22,1973-01-04 14:00:00-06,Runway 14/32,153.0,LHD,Lake Hood Airport
PALH,Lake Hood Seaplane,61.17861,-149.96511,22,1973-01-04 14:00:00-06,Runway E/W,,LHD,Lake Hood Airport
PALH,Lake Hood Seaplane,61.17861,-149.96511,22,1973-01-04 14:00:00-06,Runway N/S,,LHD,Lake Hood Airport
PALH,Lake Hood Seaplane,61.17861,-149.96511,22,1973-01-04 14:00:00-06,Runway SE/NW,,LHD,Lake Hood Airport
PAML,MANLEY HOT SPRINGS,64.99756,-150.64413,82,1977-12-01 06:00:00-06,Runway 18/36,,MLY,Manley Hot Springs Airport
PAMB,MANOKOTAK,58.98333,-159.05,16,2010-03-05 14:59:00-06,Runway 3/21,40,MBA,Manokotak Airport
PADM,MARSHALL,61.86428,-162.02611,31,2010-02-23 00:01:00-06,Runway 7/25,85,MDM,Marshall Don Hunter Sr Airport
PAMX,MCCARTHY,61.43333,-142.93333,455,1974-04-21 11:00:00-05,Runway 1/19,,15Z,McCarthy Airport
PAMC,MCGRATH (ASOS),62.95278,-155.60704,103,1948-07-03 00:00:00-05,Runway 16/34,179,MCG,Mc Grath Airport
PAMC,MCGRATH (ASOS),62.95278,-155.60704,103,1948-07-03 00:00:00-05,Runway 5/23,68,MCG,Mc Grath Airport
PAIN,MCKINLEY PARK,63.7326,-148.91064,524,1975-12-02 17:00:00-06,Runway 16/34,,INR,Mc Kinley NTL Park Airport
PAMY,MEKORYUK,60.37,-166.27,15,1983-11-03 18:00:00-06,Runway 5/23,65,MYU,Mekoryuk Airport
PAMR,Merrill Field,61.21633,-149.85729,30,1945-01-01 05:00:00-05,Runway 7/25,90,MRI,Merrill Field Airport
PAMR,Merrill Field,61.21633,-149.85729,30,1945-01-01 05:00:00-05,Runway 16/34,180,MRI,Merrill Field Airport
PAMR,Merrill Field,61.21633,-149.85729,30,1945-01-01 05:00:00-05,Runway 5/23,66,MRI,Merrill Field Airport
PAER,MERRILL PASS WEST,61.25,-153.82,358,1973-08-25 11:00:00-05,,,,
PAMM,Metlakatla Seaplane Base,55.1308,-131.5762,5.912203,1996-07-01 03:33:00-05,Runway E/W,,MTM,Metlakatla Seaplane Base
PAMM,Metlakatla Seaplane Base,55.1308,-131.5762,5.912203,1996-07-01 03:33:00-05,Runway N/S,,MTM,Metlakatla Seaplane Base
PAMD,MIDDLETON ISL. AMOS,59.432,-146.338,14,1945-01-01 07:00:00-05,Runway 2/20,34,MDO,Middleton Island Airport
PAMD,MIDDLETON ISL. AMOS,59.432,-146.338,14,1945-01-01 07:00:00-05,Runway 13/31,149,MDO,Middleton Island Airport
PAMH,MINCHUMINA,63.886,-152.30187,214,1948-07-01 05:00:00-05,Runway 3/21,45,MHM,Minchumina Airport
PAMO,MOUNTAIN VILLAGE,62.09528,-163.68194,102,2010-02-23 00:56:00-06,Runway 2/20,32,MOU,Mountain Village Airport
PABN,NABESNA/DEVIL MTN,62.40167,-142.99528,882,1991-12-31 18:00:00-06,Runway 14/32,,IBN,Devils Mountain Lodge Airport
PANA,Napakiak,60.6903,-161.9785,1,1994-08-30 10:00:00-05,Runway 16/34,175,WNA,Napakiak Airport
PAOU,NELSON LAGOON,56.01,-161.16,4,2010-02-23 00:06:00-06,Runway 8/26,96,OUL,Nelson Lagoon Airport
PANN,NENANA/MUN. (ASOS),64.54733,-149.07398,110,1943-07-06 11:00:00-05,Runway 4L/22R,59,ENN,Nenana Municipal Airport
PANN,NENANA/MUN. (ASOS),64.54733,-149.07398,110,1943-07-06 11:00:00-05,Runway 4R/22L,59,ENN,Nenana Municipal Airport
PANN,NENANA/MUN. (ASOS),64.54733,-149.07398,110,1943-07-06 11:00:00-05,Runway 4W/22W,56,ENN,Nenana Municipal Airport
PANW,NEW STUYAHOK,59.45,-157.33,92,2010-02-23 00:56:00-06,Runway 14/32,153,KNW,New Stuyahok Airport
PAFS,NIKOLAI,63.02,-154.36,126,2010-02-23 00:56:00-06,Runway 5/23,63,FSP,Nikolai Airport
PAWN,NOATAK,67.56611,-162.975,30,1994-12-31 18:00:00-06,Runway 1/19,22,WTK,Noatak Airport
PAOM,NOME (ASOS),64.5122,-165.44525,7,1940-01-01 10:00:00-06,Runway 3/21,42,OME,Nome Airport
PAOM,NOME (ASOS),64.5122,-165.44525,7,1940-01-01 10:00:00-06,Runway 10/28,110,OME,Nome Airport
PFNO,Noorvik,66.81753,-161.02225,16.8,1973-01-03 17:00:00-06,Runway 6/24,75,D76,Robert (Bob) Curtis Memorial Airport
PAOR,NORTHWAY (ASOS),62.96139,-141.92917,525,1945-01-01 04:00:00-05,Runway 5/23,76,ORT,Northway Airport
PFNU,Nuiqsut,70.49542,-150.25347,-2,2018-07-01 19:05:00-05,Helipad H1,,AK3,Oooguruk Island Heliport
PAQT,NUIQSUT (ASOS),70.20995,-151.00556,17,1998-08-01 03:53:00-05,Runway 5/23,70,AQT,Nuiqsut Airport
PPNU,Nuiqsut/Pioneer,70.4141,-150.01859,15,2018-04-19 00:55:00-05,Helipad H1,,AA2,Otp Heliport
PPIT,Nunapitchuk,60.906,-162.4406,1,2014-05-15 10:56:00-05,Runway 18/36,196.0,16A,Nunapitchuk Airport
PPIT,Nunapitchuk,60.906,-162.4406,1,2014-05-15 10:56:00-05,Runway NE/SW,,16A,Nunapitchuk Airport
PAAQ,PALMER MUNICIPAL (ASOS),61.59491,-149.08871,71,1972-12-31 18:00:00-06,Runway 16/34,180.0,PAQ,"Warren ""Bud"" Woods Palmer Municipal Airport"
PAAQ,PALMER MUNICIPAL (ASOS),61.59491,-149.08871,71,1972-12-31 18:00:00-06,Runway 10/28,113.0,PAQ,"Warren ""Bud"" Woods Palmer Municipal Airport"
PAAQ,PALMER MUNICIPAL (ASOS),61.59491,-149.08871,71,1972-12-31 18:00:00-06,Helipad H1,,PAQ,"Warren ""Bud"" Woods Palmer Municipal Airport"
PAAQ,PALMER MUNICIPAL (ASOS),61.59491,-149.08871,71,1972-12-31 18:00:00-06,Runway 16S/34S,180.0,PAQ,"Warren ""Bud"" Woods Palmer Municipal Airport"
PAXK,PAXSON,63.02458,-145.50055,809,1974-04-18 20:00:00-05,Runway 13/31,,PXK,Paxson Airport
PAPG,Petersburg,56.7999,-132.9501,26.476944,1948-07-01 04:00:00-05,Runway 5/23,71,PSG,Petersburg James A Johnson Airport
PAPN,PILOT POINT,57.58,-157.57,17,2010-02-23 18:41:00-06,Runway 7/25,90,PNP,Pilot Point Airport
PAPM,PLATINUM,59.01,-161.82,5,1942-10-01 08:00:00-05,Runway 14/32,155,PTU,Platinum Airport
PAPO,POINT HOPE (AWOS),68.35,-166.8,4,1943-10-01 07:00:00-05,Runway 1/19,22,PHO,Point Hope Airport
PPIZ,POINT LAY(DEW/AWOS),69.73288,-163.00534,6,1957-08-01 13:00:00-05,Runway 5/23,69,PIZ,Point Lay LRRS Airport
PAAD,Point Thomson Airstrip,70.136,-146.2901,5,2014-07-24 20:15:00-05,Runway 5/23,,37A,Point Thomson Airstrip
PATO,PORTAGE GLACIER CENTER (ASOS),60.785,-148.83889,29,1998-11-01 03:53:00-06,,,,
PAAP,PORT ALEXANDER,56.24684,-134.64815,1,1979-05-07 10:00:00-05,Runway N/S,,AHP,Port Alexander Seaplane Base
PALJ,PORT ALSWORTH,60.204,-154.319,81,1972-12-31 18:00:00-06,Runway 6L/24R,,TPO,Port Alsworth Airport
PAPC,Port Clarence,65.2537,-166.8585,5,1972-12-31 18:00:00-06,Runway 16/34,180,KPC,Port Clarence Coast Guard Station
PAPH,PORT HEIDEN (AMOS),56.9591,-158.63336,29,1942-08-02 23:00:00-05,Runway 6/24,70,PTH,Port Heiden Airport
PAPH,PORT HEIDEN (AMOS),56.9591,-158.63336,29,1942-08-02 23:00:00-05,Runway 14/32,147,PTH,Port Heiden Airport
PAPR,PROSPECT CREEK,66.81406,-150.64361,335,1948-01-01 04:00:00-06,Runway 1/19,32,PPC,Prospect Creek Airport
PAPT,PUNTILLA (LAKE),62.1,-152.75,560,1972-12-31 19:00:00-06,,,,
PAQH,Quinhagak,59.7551,-161.8454,12,2014-02-12 11:56:00-06,Runway 12/30,134,AQH,Quinhagak Airport
PADG,Red Dog,68.03211,-162.89919,295.4,2007-12-01 10:14:00-06,Runway 3/21,42,DGG,Red Dog Airport
PARD,RED DOG,68.03139,-162.90306,288.97864,2010-09-07 19:46:00-05,,,,
PARY,RUBY,64.73,-155.47,199,1953-06-01 05:00:00-05,Runway 3/21,51,RBY,Ruby Airport
PARS,RUSSIAN MISSION,61.77489,-161.3194,16,1976-05-12 03:00:00-05,Runway 18/36,188.0,RSH,Russian Mission Airport
PARS,RUSSIAN MISSION,61.77489,-161.3194,16,1976-05-12 03:00:00-05,Runway 18W/36W,,RSH,Russian Mission Airport
PASM,SAINT MARY S (AWOS),62.06083,-163.30183,95,1979-04-08 12:00:00-06,Runway 17/35,182,KSM,St Mary's Airport
PASM,SAINT MARY S (AWOS),62.06083,-163.30183,95,1979-04-08 12:00:00-06,Runway 6/24,77,KSM,St Mary's Airport
PASN,SAINT PAUL ISLAND (ASOS),57.15528,-170.22222,9,1943-11-05 05:00:00-05,Runway 18/36,190,SNP,St Paul Island Airport
PASD,SAND POINT,55.31369,-160.52142,7,1980-06-01 10:00:00-05,Runway 14/32,148,SDP,Sand Point Airport
PASA,SAVOONGA AIRPORT,63.68639,-170.49264,16,1987-06-29 11:00:00-05,Runway 5/23,60,SVA,Savoonga Airport
PACM,SCAMMON BAY,61.84454,-165.57375,4,2010-02-23 00:04:00-06,Runway 10/28,113,SCM,Scammon Bay Airport
PASK,SELAWIK,66.60014,-159.98575,8,1993-12-31 18:00:00-06,Runway 4/22,53,WLK,Selawik Airport
PASK,SELAWIK,66.60014,-159.98575,8,1993-12-31 18:00:00-06,Runway 9/27,106,WLK,Selawik Airport
PASO,SELDOVIA (ASOS),59.44244,-151.70405,10,1997-06-01 03:53:00-05,Runway 16/34,,SOV,Seldovia Airport
PAWD,SEWARD (ASOS),60.12694,-149.41861,18,1945-01-01 12:00:00-05,Runway 13/31,146,SWD,Seward Airport
PAWD,SEWARD (ASOS),60.12694,-149.41861,18,1945-01-01 12:00:00-05,Runway 16/34,177,SWD,Seward Airport
PAHX,Shageluk,62.69231,-159.5692,17,2014-02-05 09:24:00-06,Runway 16/34,179.0,SHX,Shageluk Airport
PAHX,Shageluk,62.69231,-159.5692,17,2014-02-05 09:24:00-06,Runway 18W/36W,,SHX,Shageluk Airport
PFSH,Shaktoolik,64.37108,-161.22397,7,2010-12-05 15:58:00-06,Runway 15/33,158,2C7,Shaktoolik Airport
PASP,SHEEP MOUNTAIN,61.81225,-147.50445,838,1948-12-31 18:00:00-06,Runway 5/23,69,SMU,Sheep Mountain Airport
PASY,SHEMYA AFB,52.71407,174.11691,30,1943-06-21 14:00:00-05,Runway 10/28,,SYA,Eareckson Air Station
PASH,SHISHMAREF (AWOS),66.24957,-166.08935,2,1983-11-04 11:00:00-06,Runway 5/23,63,SHH,Shishmaref Airport
PAGH,Shungnak,66.88808,-157.1624,60,1985-02-08 15:00:00-06,Runway 10/28,117,SHG,Shungnak Airport
PASI,SITKA/JAPONSKI ARPT (ASOS),57.04714,-135.36161,20,1948-07-01 04:00:00-05,Runway 11/29,136,SIT,Sitka Rocky Gutierrez Airport
PAGY,SKAGWAY (ASOS),59.46006,-135.31566,5,1943-10-01 04:00:00-05,Runway 2/20,,SGY,Skagway Airport
PASW,SKWENTNA,61.96529,-151.19137,45,1948-07-31 05:00:00-05,Runway 10/28,116,SKW,Skwentna Airport
PADT,SLANA AIRPORT,62.70889,-143.98111,730,1974-09-03 19:00:00-05,Runway 5/23,,DDT,Duffy's Tavern Airport
PASL,SLEETMUTE,61.71667,-157.15,54,1994-03-01 03:00:00-06,Runway 15/33,166,SLQ,Sleetmute Airport
PALK,SNOWSHOE LAKE,62.03333,-142.66666,735,1972-12-31 18:00:00-06,,,,
PASX,SOLDOTNA,60.47583,-151.03417,33,1983-05-01 19:00:00-05,Runway 7/25,90,SXQ,Soldotna Airport
PASX,SOLDOTNA,60.47583,-151.03417,33,1983-05-01 19:00:00-05,Runway 7S/25S,90,SXQ,Soldotna Airport
PFWS,South Naknek,58.70208,-157.00258,46.595665,1994-08-18 08:00:00-05,Runway 13/31,139,WSN,South Naknek Nr 2 Airport
PFWS,South Naknek,58.70208,-157.00258,46.595665,1994-08-18 08:00:00-05,Runway 5/23,61,WSN,South Naknek Nr 2 Airport
PASV,SPARREVOHN (AWOS),61.09721,-155.57477,484,1951-07-11 06:00:00-05,Runway 16/34,180,SVW,Sparrevohn LRRS Airport
PAPB,ST GEORGE ISLAND (ASOS),56.57694,-169.66306,35,1996-10-01 03:53:00-05,Runway 11/29,118,PBV,St George Airport
PAMK,ST MICHAEL,63.49,-162.11,28,2010-02-23 00:56:00-06,Runway 2/20,32,SMK,St Michael Airport
PAJV,SUTTON,61.71667,-148.88333,265,1991-12-31 18:00:00-06,,,,
PATK,TALKEETNA (ASOS),62.32,-150.095,109,1948-07-01 11:00:00-05,Runway 1/19,27,TKA,Talkeetna Airport
PATA,TANANA/CALHOUN MEM (ASOS),65.17444,-152.10694,67,1943-06-01 05:00:00-05,Runway 7/25,89,TAL,Ralph M Calhoun Memorial Airport
PATL,TATALINA (AWOS),62.89437,-155.97653,294,1952-04-01 08:00:00-06,Runway 17/35,182,TLJ,Tatalina LRRS Airport
PATE,Teller,65.24038,-166.33934,90,1943-08-01 06:00:00-05,Runway 8/26,89,TER,Teller Airport
PATC,TIN CITY AFS (AWOS),65.56403,-167.92246,83,1953-05-04 13:00:00-05,Runway 16/34,,TNC,Tin City LRRS Airport
PATG,TOGIAC VILLAGE AWOS,59.05363,-160.39692,6,1989-12-01 12:00:00-06,Runway 3/21,42,TOG,Togiak Airport
PATG,TOGIAC VILLAGE AWOS,59.05363,-160.39692,6,1989-12-01 12:00:00-06,Runway 10/28,112,TOG,Togiak Airport
PAOO,TOOKSOK BAY,60.54134,-165.08719,18,2010-02-23 00:56:00-06,Runway 16/34,177,OOK,Toksook Bay Airport
PAUM,Umiat,69.3711,-152.135,83,1946-01-01 04:00:00-06,Runway 6/24,83,UMT,Umiat Airport
PAUN,UNALAKLEET (AWOS),63.8885,-160.79911,6,1943-06-01 13:00:00-05,Runway 15/33,164,UNK,Unalakleet Airport
PAUN,UNALAKLEET (AWOS),63.8885,-160.79911,6,1943-06-01 13:00:00-05,Runway 9/27,98,UNK,Unalakleet Airport
PAVW,VALDEZ,61.13333,-146.35,10,1967-07-02 13:00:00-05,,,,
PAVD,VALDEZ,61.134,-146.248,37,1975-04-30 19:00:00-05,Runway 6/24,81,VDZ,Valdez Pioneer Field Airport
PAFB,WAINWRIGHT AAF,64.8375,-147.61444,137,1941-02-05 20:00:00-06,Runway 7/25,89.0,FBK,Ladd Army Airfield
PAFB,WAINWRIGHT AAF,64.8375,-147.61444,137,1941-02-05 20:00:00-06,Helipad H1,,FBK,Ladd Army Airfield
PAFB,WAINWRIGHT AAF,64.8375,-147.61444,137,1941-02-05 20:00:00-06,Helipad H4,,FBK,Ladd Army Airfield
PAFB,WAINWRIGHT AAF,64.8375,-147.61444,137,1941-02-05 20:00:00-06,Helipad H5,,FBK,Ladd Army Airfield
PAFB,WAINWRIGHT AAF,64.8375,-147.61444,137,1941-02-05 20:00:00-06,Helipad H6,,FBK,Ladd Army Airfield
PAFB,WAINWRIGHT AAF,64.8375,-147.61444,137,1941-02-05 20:00:00-06,Helipad H7,,FBK,Ladd Army Airfield
PAWI,WAINWRIGHT AIRPORT (ASOS),70.638,-159.99475,27,1948-07-01 07:00:00-05,Runway 6/24,67,AWI,Wainwright Airport
PAIW,Wales,65.62258,-168.09494,6.7,2010-02-23 00:39:00-06,Runway 18/36,189,IWK,Wales Airport
PAWS,WASILLA NEW ARPT,61.57194,-149.54056,113,1948-07-01 06:00:00-05,Runway 4/22,56,IYS,Wasilla Airport
PAWS,WASILLA NEW ARPT,61.57194,-149.54056,113,1948-07-01 06:00:00-05,Runway 4S/22S,56,IYS,Wasilla Airport
PAWM,White Mountain,64.6892,-163.4128,81,2011-11-18 23:58:00-06,Runway 15/33,164,WMO,White Mountain Airport
PAWR,WHITTIER,60.777,-148.722,9,1975-04-30 22:00:00-05,Runway 4/22,56,IEM,Whittier Airport
PAUO,WILLOW AIRPORT,61.75419,-150.05174,67,1978-01-01 12:00:00-06,Runway 13/31,154,UUO,Willow Airport
PAWG,WRANGELL,56.48433,-132.36983,13,1972-12-31 18:00:00-06,Runway 10/28,121,WRG,Wrangell Airport
PAYA,Yakutat,59.51209,-139.67103,14.729266,1941-05-01 09:00:00-05,Runway 11/29,135,YAK,Yakutat Airport
PAYA,Yakutat,59.51209,-139.67103,14.729266,1941-05-01 09:00:00-05,Runway 2/20,45,YAK,Yakutat Airport
